[
  {
    "title": "Analista Desenvolvedor Java",
    "company_name": "Trier Sistemas",
    "featured": false,
    "color": "#AECF37",
    "link": "https://www.triersistemas.com.br/trabalhe-conosco/vagas/analista-desenvolvedor-java",
    "type": "Full-Time - CLT",
    "date": "2019-03-21T01:00:00.000Z",
    "location": {
      "city": "Tubarão",
      "state": "SC"
    }
  },
  {
    "title": "Desenvolvedor WEB",
    "company_name": "Duapi Sistemas",
    "featured": false,
    "color": "#AECF37",
    "link": "mailto:rh@duapi.com.br",
    "type": "Full-Time - CLT",
    "date": "2019-03-21T01:00:00.000Z",
    "location": {
      "city": "Criciúma",
      "state": "SC"
    }
  },
  {
    "title": "Desenvolvedor PHP",
    "company_name": "Engeplus",
    "featured": false,
    "company_logo": false,
    "link": "https://www.linkedin.com/feed/update/urn:li:activity:6495614113425743872",
    "type": "Full-Time - CLT",
    "date": "2019-03-21T01:00:00.000Z",
    "location": {
      "city": "Criciúma",
      "state": "SC"
    }
  },
  {
    "title": "Desenvolvedor Web",
    "company_name": "Innova Connect",
    "featured": false,
    "company_logo": false,
    "link": "mailto:contato@innovaconnect.com.br",
    "type": "Full-Time - CLT",
    "date": "2019-03-21T01:00:00.000Z",
    "location": {
      "city": "Criciúma",
      "state": "SC"
    }
  },
  {
    "title": "Programador Front-end",
    "company_name": "TW Sistemas",
    "featured": false,
    "color": "#0BA7A5",
    "link": "http://twsistemas.com.br/trabalhe-conosco",
    "type": "Full-Time - CLT",
    "date": "2019-03-21T01:00:00.000Z",
    "location": {
      "city": "Criciúma",
      "state": "SC"
    }
  },
  {
    "title": "Suporte técnico",
    "company_name": "TW Sistemas",
    "featured": false,
    "color": "#0BA7A5",
    "link": "http://twsistemas.com.br/trabalhe-conosco",
    "type": "Full-Time - CLT",
    "date": "2019-03-21T01:00:00.000Z",
    "location": {
      "city": "Criciúma",
      "state": "SC"
    }
  },
  {
    "title": "Desenvolvedor Web",
    "company_name": "Sistema Info",
    "featured": false,
    "color": "#DA2337",
    "link": "http://www.sistemainfo.com.br/cadastre-seu-curriculo/vaga/53",
    "type": "Full-Time - CLT",
    "date": "2019-03-21T01:00:00.000Z",
    "location": {
      "city": "Criciúma",
      "state": "SC"
    }
  },
  {
    "title": "Analista de sistemas",
    "company_name": "Sistema Info",
    "featured": false,
    "color": "#DA2337",
    "link": "http://www.sistemainfo.com.br/cadastre-seu-curriculo/vaga/55",
    "type": "Full-Time - CLT",
    "date": "2019-03-21T01:00:00.000Z",
    "location": {
      "city": "Criciúma",
      "state": "SC"
    }
  },
  {
    "title": "Assistente administrativo e financeiro pleno",
    "company_name": "Sistema Info",
    "featured": false,
    "color": "#DA2337",
    "link": "http://www.sistemainfo.com.br/cadastre-seu-curriculo/vaga/57",
    "type": "Full-Time - CLT",
    "date": "2019-03-21T01:00:00.000Z",
    "location": {
      "city": "Criciúma",
      "state": "SC"
    }
  },
  {
    "title": "Service Desk",
    "company_name": "Sistema Info",
    "featured": false,
    "color": "#DA2337",
    "link": "http://www.sistemainfo.com.br/cadastre-seu-curriculo/vaga/54",
    "type": "Full-Time - CLT",
    "date": "2019-03-21T01:00:00.000Z",
    "location": {
      "city": "Criciúma",
      "state": "SC"
    }
  },

  {
    "title": "Marketing Analyst",
    "company_name": "Portabilis",
    "company_logo": "./assets/images/logos-vagas/portabilis.png",
    "featured": true,
    "link": "https://conteudos.portabilis.com.br/mkt-analyst",
    
    "type": "Full-Time - CLT",
    "date": "2019-03-21T01:00:00.000Z",
    "location": {
      "city": "Içara",
      "state": "SC"
    }
  },

  {
    "title": "Senior Marketing Analyst",
    "company_name": "Portabilis",
    "company_logo": "./assets/images/logos-vagas/portabilis.png",
    "featured": true,
    "link": "https://conteudos.portabilis.com.br/mkt-analyst-senior",
    "type": "Full-Time - CLT",
    "date": "2019-03-21T01:00:00.000Z",
    "location": {
      "city": "Içara",
      "state": "SC"
    }
  },

  {
    "title": "Channel Analyst",
    "company_name": "Portabilis",
    "company_logo": "./assets/images/logos-vagas/portabilis.png",
    "featured": true,
    "link": "https://conteudos.portabilis.com.br/channel-analyst",
    "type": "Full-Time - CLT",
    "date": "2019-03-21T01:00:00.000Z",
    "location": {
      "city": "Içara",
      "state": "SC"
    }
  },

  {
    "title": "Analista de Qualidade (QA)",
    "company_name": "Portabilis",
    "company_logo": "./assets/images/logos-vagas/portabilis.png",
    "featured": true,
    "link": "https://conteudos.portabilis.com.br/quality-analyst",
    "type": "Full-Time - CLT",
    "date": "2019-03-21T01:00:00.000Z",
    "location": {
      "city": "Içara",
      "state": "SC"
    }
  },

  {
    "title": "Desenvolvedor Web Rails Sênior",
    "company_name": "Portabilis",
    "company_logo": "./assets/images/logos-vagas/portabilis.png",
    "featured": true,
    "link": "https://conteudos.portabilis.com.br/dev-rails-senior",
    "type": "Full-Time - CLT",
    "date": "2019-03-21T01:00:00.000Z",
    "location": {
      "city": "Içara",
      "state": "SC"
    }
  },

  {
    "title": "Senior Product Analyst",
    "company_name": "Portabilis",
    "company_logo": "./assets/images/logos-vagas/portabilis.png",
    "featured": true,
    "link": "https://conteudos.portabilis.com.br/product-analyst-edu",
    "type": "Full-Time - CLT",
    "date": "2019-03-21T01:00:00.000Z",
    "location": {
      "city": "Içara",
      "state": "SC"
    }
  },

  {
    "title": "Dev Backend Java Sênior",
    "company_name": "Globo.com",
    "company_logo": "./assets/images/logos-vagas/globo.png",
    "featured": true,
    "link": "https://talentos.globo.com/#/oportunidades/desenvolvedor-a-backend-java-senior-com-experiencia-em-infra/mp0jjyb",
    "type": "Full-Time - CLT",
    "date": "2019-03-21T01:00:00.000Z",
    "location": {
      "city": "Rio de Janeiro",
      "state": "RJ"
    }
  },

  {
    "title": "Desenvolvedor(a) Android",
    "company_name": "Globo.com",
    "company_logo": "./assets/images/logos-vagas/globo.png",
    "featured": true,
    "link": "https://talentos.globo.com/#/oportunidades/desenvolvedor-a-android-player-de-videos/mp0mmvc",
    "type": "Full-Time - CLT",
    "date": "2019-03-21T01:00:00.000Z",
    "location": {
      "city": "Rio de Janeiro",
      "state": "RJ"
    }
  },

  {
    "title": "Desenvolvedor(a) Android - Esportes",
    "company_name": "Globo.com",
    "company_logo": "./assets/images/logos-vagas/globo.png",
    "featured": true,
    "link": "https://talentos.globo.com/#/oportunidades/desenvolvedor-a-android-esportes/mp0jooq",
    "type": "Full-Time - CLT",
    "date": "2019-03-21T01:00:00.000Z",
    "location": {
      "city": "Rio de Janeiro",
      "state": "RJ"
    }
  },

  {
    "title": "Big Data - Desenvolvedor(a) de Software Sênior RJ",
    "company_name": "Globo.com",
    "company_logo": "./assets/images/logos-vagas/globo.png",
    "featured": true,
    "link": "https://talentos.globo.com/#/oportunidades/big-data-desenvolvedor-a-de-software-senior-rj/mp01em6",
    "type": "Full-Time - CLT",
    "date": "2019-03-21T01:00:00.000Z",
    "location": {
      "city": "Rio de Janeiro",
      "state": "RJ"
    }
  },

  {
    "title": "Coordenador(a) de Engenharia",
    "company_name": "ContaAzul",
    "featured": true,
    "link": "https://jobs.kenoby.com/contaazul/job/coordenadora-de-engenharia/5bfd97edd8f67055fe1f1d9f",
    "company_logo": "./assets/images/logos-vagas/contaazul.png",
    "type": "Full-Time - CLT",
    "date": "2019-03-21T01:00:00.000Z",
    "location": {
      "city": "Joinvile",
      "state": "SC"
    }
  },

  {
    "title": "Desenvolvedor(a) Frontend (Frontend Developer)",
    "company_name": "ContaAzul",
    "company_logo": "./assets/images/logos-vagas/contaazul.png",
    "featured": true,
    "link": "https://jobs.kenoby.com/contaazul/job/desenvolvedora-frontend-frontend-developer/5b9fadd9ea23aa6716a49927",
    "type": "Full-Time - CLT",
    "date": "2019-03-21T01:00:00.000Z",
    "location": {
      "city": "Joinvile",
      "state": "SC"
    }
  },

  {
    "title": "Especialista Backend (Backend Specialist)",
    "company_name": "ContaAzul",
    "company_logo": "./assets/images/logos-vagas/contaazul.png",
    "featured": true,
    "link": "https://jobs.kenoby.com/contaazul/job/especialista-backend-backend-specialist/5b9facd4f706072b766bc4be",
    "type": "Full-Time - CLT",
    "date": "2019-03-21T01:00:00.000Z",
    "location": {
      "city": "Joinvile",
      "state": "SC"
    }
  },

  {
    "title": "Especialista Backend (Backend Specialist)",
    "company_name": "ContaAzul",
    "company_logo": "./assets/images/logos-vagas/contaazul.png",
    "featured": true,
    "link": "https://jobs.kenoby.com/contaazul/job/product-ownermanager/5c58241fd797f775cfac79f1",
    "type": "Full-Time - CLT",
    "date": "2019-03-21T01:00:00.000Z",
    "location": {
      "city": "Joinvile",
      "state": "SC"
    }
  },

  {
    "title": "UX Designer",
    "company_name": "ContaAzul",
    "company_logo": "./assets/images/logos-vagas/contaazul.png",
    "featured": true,
    "link": "https://jobs.kenoby.com/contaazul/job/ux-designer/5c34881118c96a0346c24d20",
    "type": "Full-Time - CLT",
    "date": "2019-03-21T01:00:00.000Z",
    "location": {
      "city": "Joinvile",
      "state": "SC"
    }
  },

  {
    "title": "Suporte Técnico",
    "company_name": "Useall",
    "company_logo": "./assets/images/logos-vagas/useall.png",
    "featured": true,
    "link": "http://www.useall.com.br/trabalhe",
    "type": "Full-Time - CLT",
    "date": "2019-03-21T01:00:00.000Z",
    "location": {
      "city": "Criciúma",
      "state": "SC"
    }
  },

  {
    "title": "Programador C#",
    "company_name": "Useall",
    "company_logo": "./assets/images/logos-vagas/useall.png",
    "featured": true,
    "link": "http://www.useall.com.br/trabalhe",
    "type": "Full-Time - CLT",
    "date": "2019-03-21T01:00:00.000Z",
    "location": {
      "city": "Criciúma",
      "state": "SC"
    }
  },

  {
    "title": "Programador Web",
    "company_name": "Useall",
    "company_logo": "./assets/images/logos-vagas/useall.png",
    "featured": true,
    "link": "http://www.useall.com.br/trabalhe",
    "type": "Full-Time - CLT",
    "date": "2019-03-21T01:00:00.000Z",
    "location": {
      "city": "Criciúma",
      "state": "SC"
    }
  },

  {
    "title": "Arquiteto(a) de Sistemas",
    "company_name": "Betha Sistemas",
    "featured": false,
    "link": "http://www.kombo.com.br/curriculo/visualizar_vaga.php?cid=NzctMA==&codigo_vaga=k77-1629#.XFszHc9KhhE",
    "type": "Full-Time - CLT",
    "date": "2019-03-21T01:00:00.000Z",
    "location": {
      "city": "Palhoça",
      "state": "SC"
    }
  },

  {
    "title": "Analista de Testes",
    "company_name": "Betha Sistemas",
    "featured": false,
    "link": "http://www.kombo.com.br/curriculo/visualizar_vaga.php?cid=NzctMA==&codigo_vaga=k77-1632#.XFszHM9KhhE",
    "type": "Full-Time - CLT",
    "date": "2019-03-21T01:00:00.000Z",
    "location": {
      "city": "Criciúma",
      "state": "SC"
    }
  },

  {
    "title": "Analista de Sistemas",
    "company_name": "Betha Sistemas",
    "featured": false,
    "link": "http://www.kombo.com.br/curriculo/visualizar_vaga.php?cid=NzctMA==&codigo_vaga=k77-1628#.XFszHM9KhhE",
    "type": "Full-Time - CLT",
    "date": "2019-03-21T01:00:00.000Z",
    "location": {
      "city": "Criciúma",
      "state": "SC"
    }
  }

]
